City_ID,City,Lat,Lng,Max Temp,Humidity,Cloudiness,Wind Speed,Country,Date
0,tabou,4.423,-7.3528,24.33,82,83,2.53,CI,1719641037
1,punta arenas,-53.15,-70.9167,-0.94,86,75,3.09,CL,1719641039
2,utrik,11.2278,169.8474,27.94,83,97,7.02,MH,1719641040
3,chernyshevskiy,63.0128,112.4714,28.79,40,54,2.02,RU,1719641042
4,port saint john's,-31.6229,29.5448,17.79,49,7,3.16,ZA,1719641044
5,san antonio de pale,-1.4014,5.6325,23.62,90,94,4.6,GQ,1719641046
6,port-aux-francais,-49.35,70.2167,1.28,78,76,18.63,TF,1719641048
7,port elizabeth,-33.918,25.5701,20.16,63,0,2.57,ZA,1719641049
8,olonkinbyen,70.9221,-8.7187,1.88,94,100,5.22,SJ,1719641051
9,georgetown,5.4112,100.3354,31.97,56,40,4.12,MY,1719641053
10,kodiak,57.79,-152.4072,9.76,92,100,1.47,US,1719641055
11,luderitz,-26.6481,15.1594,16.3,61,37,2.85,NA,1719641056
12,aykhal,66.0,111.5,25.95,50,76,10.96,RU,1719641058
13,saipan,15.1355,145.701,32.39,66,40,7.2,MP,1719641060
14,sandacho,34.8833,135.2333,28.13,59,100,3.17,JP,1719641062
15,invercargill,-46.4,168.35,8.9,83,53,0.45,NZ,1719641063
16,arraial do cabo,-22.9661,-42.0278,22.58,82,78,3.95,BR,1719641065
17,fortuna,40.5982,-124.1573,12.18,92,0,0.0,US,1719641067
18,afaahiti,-17.75,-149.2833,24.93,83,35,11.67,PF,1719641069
19,isafjordur,66.0755,-23.124,5.92,70,0,0.89,IS,1719641070
20,yellowknife,62.456,-114.3525,15.79,58,20,3.09,CA,1719640856
21,islampur,26.2667,88.2,32.72,66,91,4.35,IN,1719641074
22,adamstown,-25.066,-130.1015,19.26,71,100,12.36,PN,1719641077
23,luau,-10.7073,22.2247,15.25,52,1,2.59,AO,1719641079
24,rabo de peixe,37.8,-25.5833,19.73,99,75,2.06,PT,1719641080
25,taltal,-25.4,-70.4833,15.07,75,91,1.77,CL,1719640851
26,port mathurin,-19.6833,63.4167,22.51,66,83,9.51,MU,1719641084
27,waitangi,-43.9535,-176.5597,8.23,69,44,4.4,NZ,1719641085
28,papatowai,-46.5619,169.4708,7.29,87,50,1.87,NZ,1719641087
29,grytviken,-54.2811,-36.5092,-0.5,95,95,2.41,GS,1719641089
30,stanley,54.868,-1.6985,12.06,83,20,1.54,GB,1719641091
31,aasiaat,68.7098,-52.8699,2.86,88,100,6.88,GL,1719641092
32,sitka,57.0531,-135.33,14.94,72,75,0.0,US,1719641094
33,tyumentsevo,53.3224,81.498,30.22,48,94,2.22,RU,1719641096
34,zemio,5.0314,25.1361,23.34,83,91,0.73,CF,1719641098
35,juneau,58.3019,-134.4197,16.17,100,91,0.46,US,1719640986
36,san patricio,28.017,-97.5169,29.94,82,0,7.17,US,1719641101
37,albany,42.6001,-73.9662,18.74,60,100,0.45,US,1719640963
38,bodo,67.28,14.405,18.3,94,75,2.06,NO,1719641105
39,uturoa,-16.7333,-151.4333,26.64,77,3,11.48,PF,1719641107
40,kristiansund,63.1115,7.732,14.03,78,75,0.51,NO,1719641108
41,tsurugi-asahimachi,36.45,136.6333,29.62,70,49,3.39,JP,1719641110
42,edinburgh of the seven seas,-37.0676,-12.3116,14.21,89,64,6.19,SH,1719641112
43,bayanhongor,46.7167,100.1167,18.63,27,26,4.31,MN,1719641113
44,iskateley,67.6803,53.1512,12.01,75,100,6.84,RU,1719641115
45,aboso,5.3617,-1.9473,22.33,98,67,1.26,GH,1719641117
46,badger,64.8,-147.5333,21.14,59,100,2.39,US,1719641119
47,lae,-6.7221,146.9847,29.37,65,95,3.03,PG,1719641120
48,haiku-pauwela,20.9219,-156.3051,24.03,77,75,6.69,US,1719641122
49,hamilton,39.1834,-84.5333,28.35,75,0,2.24,US,1719641124
50,hadibu,12.65,54.0333,29.1,63,96,13.61,YE,1719641125
51,thompson,55.7435,-97.8558,7.09,76,20,0.0,CA,1719641127
52,scottburgh,-30.2867,30.7532,16.4,67,7,2.65,ZA,1719641129
53,shenkursk,62.1091,42.896,20.93,47,1,2.09,RU,1719641131
54,iqaluit,63.7506,-68.5145,3.85,86,100,1.54,CA,1719641132
55,murghob,38.1702,73.9667,11.58,53,63,1.66,TJ,1719641134
56,talnakh,69.4865,88.3972,7.84,71,100,8.73,RU,1719641136
57,hawaiian paradise park,19.5933,-154.9731,23.26,88,100,1.54,US,1719641138
58,hardoi,27.4167,80.1167,35.57,49,86,0.66,IN,1719641139
59,enewetak,11.3474,162.3373,28.48,73,95,6.24,MH,1719641141
60,severnoye,56.3491,78.3619,27.6,75,92,3.99,RU,1719641143
61,bethel,41.3712,-73.414,17.53,76,0,2.06,US,1719641145
62,avarua,-21.2078,-159.775,25.03,88,75,6.17,CK,1719640882
63,gadzhiyevo,69.2551,33.3362,20.93,65,69,7.35,RU,1719641148
64,port lincoln,-34.7333,135.8667,12.69,55,85,8.39,AU,1719641145
65,blackmans bay,-43.0167,147.3167,11.07,66,59,8.59,AU,1719641151
66,weno,7.4515,151.8468,31.97,74,100,3.6,FM,1719641155
67,college,64.8569,-147.8028,21.18,53,100,1.9,US,1719641156
68,alofi,-19.0595,-169.9187,24.94,94,48,3.09,NU,1719641158
69,klyuchi,52.2667,79.1667,32.4,34,91,0.73,RU,1719641160
70,kasumkent,41.6773,48.146,22.86,45,27,3.13,RU,1719641162
71,carnarvon,-24.8667,113.6333,19.39,61,0,7.66,AU,1719641163
72,haymana,39.4321,32.4973,21.05,41,100,3.92,TR,1719641165
73,zeya,53.75,127.2667,24.72,21,7,3.77,RU,1719641167
74,aberdeen,57.1437,-2.0981,12.89,71,1,2.57,GB,1719641170
75,lautoka,-17.6167,177.4667,26.92,69,40,3.6,FJ,1719641172
76,egilsstadir,65.2653,-14.3948,6.95,81,75,1.54,IS,1719641174
77,katsuura,35.1333,140.3,22.15,89,100,3.87,JP,1719641176
78,magadan,59.5667,150.8,11.61,80,100,2.37,RU,1719641177
79,puerto natales,-51.7236,-72.4875,-4.75,93,0,1.54,CL,1719641179
80,siasi,5.5462,120.8145,28.03,70,87,2.1,PH,1719641181
81,shakhtersk,48.0625,38.5167,22.52,48,7,5.2,UA,1719641183
82,vorgashor,67.5833,63.95,6.23,72,100,5.0,RU,1719641185
83,kanniyakumari,8.0833,77.5667,32.14,74,73,9.5,IN,1719641186
84,tolanaro,-25.0319,46.9987,18.04,77,40,6.17,MG,1719641188
85,kukawa,12.9234,13.5606,29.75,47,85,2.16,NG,1719641190
86,ta`u,-14.2336,-169.5144,27.64,82,33,8.42,AS,1719641191
87,palmer,42.1584,-72.3287,16.96,71,100,2.06,US,1719641193
88,kourou,5.1552,-52.6478,24.03,92,69,2.2,GF,1719641195
89,salinas,36.6777,-121.6555,14.12,93,100,4.12,US,1719641196
90,charlestown,-32.95,151.6667,19.88,63,11,0.45,AU,1719641198
91,necochea,-38.5473,-58.7368,6.73,67,99,10.65,AR,1719641185
92,mahibadhoo,3.7833,72.9667,28.11,76,83,1.79,MV,1719641202
93,bilibino,68.0546,166.4372,18.68,47,98,2.08,RU,1719641203
94,margaret river,-33.95,115.0667,16.9,41,17,1.43,AU,1719640924
95,dengzhou,37.8086,120.7508,25.9,64,93,6.96,CN,1719641207
96,lebu,-37.6167,-73.65,6.1,71,96,3.07,CL,1719641208
97,waingapu,-9.6567,120.2641,30.61,61,18,7.15,ID,1719641210
98,atafu village,-8.5421,-172.5159,28.61,77,17,7.83,TK,1719641212
99,chonchi,-42.6128,-73.8092,4.51,91,94,0.86,CL,1719641213
100,olyokminsk,60.3736,120.4264,25.34,22,0,0.65,RU,1719641215
101,longyearbyen,78.2186,15.6401,6.91,61,75,6.69,SJ,1719641217
102,novyy urgal,51.0736,132.5642,22.54,67,90,2.94,RU,1719641219
103,terra santa,-2.1042,-56.4869,23.31,74,3,1.33,BR,1719641220
104,ushuaia,-54.8,-68.3,-2.19,86,75,1.03,AR,1719641222
105,corumba,-19.0092,-57.6533,24.18,41,86,1.29,BR,1719641224
106,pyhajarvi,67.0701,27.2176,25.01,55,43,3.98,FI,1719641226
107,vilyuchinsk,52.9306,158.4028,21.15,61,94,1.02,RU,1719641230
108,borogontsy,62.6683,131.1683,21.94,32,80,2.88,RU,1719641231
109,isla mujeres,21.2311,-86.731,28.03,87,100,12.11,MX,1719641233
110,las lomitas,-24.7096,-60.593,14.6,45,100,4.59,AR,1719641235
111,kerikeri,-35.2268,173.9474,12.17,90,75,1.38,NZ,1719641237
112,massaguet,12.4755,15.4365,28.59,63,93,5.53,TD,1719641239
113,saint-pierre,-21.3393,55.4781,23.82,46,75,6.69,RE,1719641241
114,ribeira grande,38.5167,-28.7,20.99,88,7,0.89,PT,1719641242
115,mount pearl,47.5166,-52.7813,9.98,97,100,7.72,CA,1719641244
116,sompeta,18.9333,84.6,32.58,62,100,0.97,IN,1719641246
117,jamestown,42.097,-79.2353,24.77,73,40,3.09,US,1719641248
118,bushehr,28.9684,50.8385,39.05,27,0,3.09,IR,1719641249
119,valentin gomez farias,28.2167,-106.5833,22.26,63,93,5.33,MX,1719641251
120,san martin,-33.081,-68.4681,4.33,34,0,2.12,AR,1719641253
121,dryden,49.7833,-92.7503,11.16,100,100,5.14,CA,1719641255
122,gardnerville ranchos,38.8882,-119.7413,20.61,38,0,0.89,US,1719641256
123,tsiombe,-25.3,45.4833,19.13,58,0,3.36,MG,1719641258
124,tazovsky,67.4667,78.7,7.83,65,50,5.84,RU,1719641260
125,san andres,12.5847,-81.7006,28.01,83,20,2.06,CO,1719641261
126,puerto ayora,-0.7393,-90.3518,21.42,98,23,1.34,EC,1719641265
127,constantia,44.1833,28.65,29.38,52,0,5.5,RO,1719641266
128,moroni,-11.7022,43.2551,25.62,66,59,5.5,KM,1719641268
129,luganville,-15.5333,167.1667,24.69,78,52,5.26,VU,1719641270
130,hithadhoo,-0.6,73.0833,28.3,66,94,2.72,MV,1719641272
131,iskushuban,10.2837,50.23,32.42,36,86,14.98,SO,1719641273
132,whitehorse,60.7161,-135.0538,19.06,55,44,1.79,CA,1719641277
133,firmat,-33.4594,-61.4832,3.34,66,0,2.74,AR,1719641278
134,la sarre,48.8002,-79.1996,10.25,96,100,3.79,CA,1719641280
135,susuman,62.7833,148.1667,8.46,65,100,1.62,RU,1719641282
136,tiksi,71.6872,128.8694,16.45,36,6,4.51,RU,1719641283
137,kangding,30.0513,101.9603,19.18,89,100,1.79,CN,1719641285
138,kapuskasing,49.4169,-82.4331,10.86,99,100,3.42,CA,1719641287
139,kabompo,-13.5927,24.2008,12.52,71,1,2.88,ZM,1719641289
140,enshi,30.3,109.4833,31.1,61,59,0.8,CN,1719641290
141,akniste,56.1615,25.7478,20.25,85,97,4.17,LV,1719641292
142,petropavlovsk-kamchatsky,53.0452,158.6483,20.33,56,40,5.0,RU,1719641294
143,guiyang,26.5833,106.7167,20.46,94,100,2.08,CN,1719641295
144,huarmey,-10.0681,-78.1522,18.18,90,52,3.25,PE,1719641297
145,wailua homesteads,22.0669,-159.378,23.44,81,75,7.2,US,1719641299
146,akrehamn,59.2667,5.1833,13.56,76,40,7.72,NO,1719641300
147,bredasdorp,-34.5322,20.0403,16.42,43,39,2.58,ZA,1719641302
148,zaraza,9.3503,-65.3245,22.94,98,91,1.66,VE,1719641304
149,nhamunda,-2.1861,-56.7131,23.13,73,7,1.32,BR,1719641305
150,lorengau,-2.0226,147.2712,28.13,82,97,6.22,PG,1719641307
151,vadso,70.0744,29.7487,12.49,87,100,6.69,NO,1719641309
152,aktau,43.65,51.2,25.32,59,3,5.13,KZ,1719641310
153,ancud,-41.8697,-73.8203,5.53,82,76,0.71,CL,1719641314
154,west island,-12.1568,96.8225,28.99,74,20,7.2,CC,1719641316
155,road town,18.4167,-64.6167,28.05,72,38,8.72,VG,1719641317
156,ilulissat,69.2167,-51.1,4.01,93,100,3.6,GL,1719641319
157,akureyri,65.6835,-18.0878,7.07,90,100,2.35,IS,1719641321
158,laojunmiao,39.8333,97.7333,23.33,26,100,2.27,CN,1719641322
159,bikenibeu village,1.3673,173.1241,29.98,74,75,2.57,KI,1719641324
160,balotra,25.8333,72.2333,35.15,50,100,5.71,IN,1719641326
161,dhidhdhoo,6.8833,73.1,28.17,78,46,4.79,MV,1719641327
162,margate,51.3813,1.3862,15.94,74,30,1.66,GB,1719641329
163,baghlan,35.75,69.0,26.72,27,0,2.81,AF,1719641331
164,kirensk,57.7853,108.1119,33.47,23,38,4.75,RU,1719641332
165,lihue,21.9789,-159.3672,23.77,80,75,7.2,US,1719641334
166,udachny,66.4167,112.4,21.83,70,90,3.15,RU,1719641336
167,sinop,41.7711,34.8709,20.68,55,42,3.46,TR,1719641337
168,tabas,33.5959,56.9244,39.58,13,63,2.52,IR,1719641339
169,piacabucu,-10.4056,-36.4344,20.17,89,6,1.77,BR,1719641341
170,anadyr,64.75,177.4833,9.28,100,75,4.0,RU,1719641343
171,tonghae,37.5439,129.1069,27.1,64,85,2.87,KR,1719641346
172,inirida,3.8653,-67.9239,23.41,96,98,0.31,CO,1719641348
173,eyl,7.9803,49.8164,30.23,32,90,15.66,SO,1719641349
174,wareham,50.6889,-2.1104,13.29,86,88,1.29,GB,1719641351
175,nuku'alofa,-21.1333,-175.2,22.19,88,75,4.12,TO,1719641353
176,zaozersk,69.4005,32.4476,21.41,65,58,5.51,RU,1719641355
177,san luis de la loma,17.2706,-100.8939,25.34,83,84,1.78,MX,1719641356
178,kayangel,8.0823,134.7173,27.12,83,98,4.78,PW,1719641358
179,papao,-17.75,-149.55,25.82,83,24,12.6,PF,1719641361
180,sparti,37.0733,22.4297,29.42,32,0,5.59,GR,1719641363
181,yuzhno-kurilsk,44.0306,145.8556,17.19,88,51,4.31,RU,1719641365
182,torit,4.4133,32.5678,22.48,83,86,0.49,SS,1719641366
183,novo aripuana,-5.1206,-60.3797,23.99,85,31,1.12,BR,1719641368
184,yurty,56.0498,97.6348,33.12,26,6,2.43,RU,1719641370
185,salalah,17.0151,54.0924,32.05,70,100,3.6,OM,1719641371
186,fale old settlement,-9.3852,-171.2468,28.55,78,14,7.98,TK,1719641373
187,fort bragg,35.139,-79.006,25.67,91,85,2.1,US,1719641375
188,lompoc,34.6391,-120.4579,13.77,93,100,1.54,US,1719641194
189,alice springs,-23.7,133.8833,28.75,37,100,8.23,AU,1719641331
190,linqiong,30.4159,103.4609,30.87,58,100,1.78,CN,1719641380
191,delijan,33.9905,50.6838,30.23,23,2,1.53,IR,1719641381
192,la ronge,55.1001,-105.2842,9.04,57,24,1.3,CA,1719641383
193,qaqortoq,60.7167,-46.0333,2.75,98,100,4.18,GL,1719641385
194,celestun,20.8667,-90.4,26.68,81,45,6.13,MX,1719641387
195,shar,49.5886,81.0453,33.52,25,15,4.61,KZ,1719641388
196,tadine,-21.55,167.8833,21.77,64,64,6.25,NC,1719641390
197,dunedin,-45.8742,170.5036,8.22,66,7,0.61,NZ,1719641221
198,pisco,-13.7,-76.2167,16.03,88,100,1.03,PE,1719641393
199,leua,48.2156,18.6071,26.86,77,30,0.33,SK,1719641395
200,camacupa,-12.0167,17.4833,10.61,56,1,1.54,AO,1719641397
201,copala,16.65,-98.9833,25.15,84,100,1.32,MX,1719641398
202,samana,19.2056,-69.3369,23.92,93,100,2.24,DO,1719641400
203,archangelos,36.2149,28.1149,25.99,46,0,3.44,GR,1719641402
204,port alfred,-33.5906,26.891,17.32,69,38,0.89,ZA,1719641404
205,lazaro cardenas,17.9583,-102.2,24.52,86,89,1.82,MX,1719641405
206,mudgee,-32.5943,149.5871,17.01,69,23,4.01,AU,1719641407
207,vytegra,61.0064,36.4481,23.54,47,1,3.41,RU,1719641409
208,walvis bay,-22.9575,14.5053,13.38,92,1,2.02,NA,1719641410
209,tahe,52.3333,124.7333,25.48,26,13,3.52,CN,1719641412
210,san sebastian de la gomera,28.0916,-17.1133,20.21,77,0,1.03,ES,1719641414
211,mahina,-17.5065,-149.489,25.87,69,0,1.54,PF,1719641415
212,ormond-by-the-sea,29.3491,-81.0665,24.49,95,0,0.45,US,1719641417
213,codrington,-38.2667,141.9667,10.39,76,100,7.49,AU,1719641419
214,champasak,14.75,106.0,29.6,83,97,1.48,LA,1719641422
215,tweed heads,-28.1817,153.547,22.89,67,20,4.63,AU,1719641424
216,kiruna,67.8557,20.2251,20.51,68,40,3.6,SE,1719641426
217,raposa,-6.5167,-44.1833,19.11,60,48,0.73,BR,1719641427
218,tazacorte,28.629,-17.9293,19.54,88,0,5.14,ES,1719641429
219,severo-yeniseyskiy,60.3725,93.0408,26.86,49,69,2.79,RU,1719641432
220,hermanus,-34.4187,19.2345,15.45,53,56,3.83,ZA,1719641434
221,elko,41.0002,-115.5012,19.8,29,0,5.36,US,1719641436
222,muang xay,20.7,101.9833,29.87,63,100,2.1,LA,1719641437
223,crane,31.3974,-102.3501,30.75,38,0,10.4,US,1719641439
224,woolgoolga,-30.1106,153.2007,20.93,67,0,5.38,AU,1719641441
225,gabu,12.2833,-14.2167,23.77,95,28,2.01,GW,1719641443
226,east london,-33.0153,27.9116,21.52,43,0,5.14,ZA,1719641444
227,usinsk,65.9939,57.5281,10.84,70,82,7.05,RU,1719641446
228,bardai,11.65,7.2333,23.74,72,87,2.12,NG,1719641448
229,senanga,-16.1167,23.2667,12.4,67,6,1.99,ZM,1719641451
230,praia da vitoria,38.7333,-27.0667,20.42,93,46,3.82,PT,1719641453
231,punta gorda,26.9298,-82.0454,27.22,93,0,1.54,US,1719641455
232,touros,-5.1989,-35.4608,22.48,89,46,4.4,BR,1719641456
233,prainha,-1.8,-53.48,23.66,84,60,1.31,BR,1719641458
234,keflavik,64.0049,-22.5624,8.95,100,20,5.66,IS,1719641460
235,esquel,-42.9,-71.3167,-2.51,97,46,2.15,AR,1719641461
236,port shepstone,-30.7414,30.455,17.19,62,37,2.61,ZA,1719641463
237,merizo village,13.2658,144.6691,31.31,83,54,4.33,GU,1719641465
238,lata,40.1629,-8.3327,16.71,97,100,1.33,PT,1719641466
239,opuwo,-18.0607,13.84,12.24,49,0,2.49,NA,1719641468
240,puerto baquerizo moreno,-0.9,-89.6,20.95,92,26,5.17,EC,1719641470
241,chom bueng,13.62,99.5917,35.08,44,97,1.15,TH,1719641471
242,homer,59.6425,-151.5483,14.32,68,100,1.54,US,1719641473
243,siwa oasis,29.2041,25.5195,27.26,50,0,6.13,EG,1719641475
244,barra dos coqueiros,-10.9089,-37.0386,20.01,94,30,1.03,BR,1719641477
245,greenville,35.6127,-77.3663,25.09,93,0,2.06,US,1719641478
246,dudinka,69.4058,86.1778,8.95,58,100,9.02,RU,1719641480
247,kalmunai,7.4167,81.8167,32.91,48,49,2.16,LK,1719641482
248,bandon,51.7469,-8.7425,14.77,99,100,3.26,IE,1719641483
249,sao tome,0.3365,6.7273,24.87,86,75,2.9,ST,1719641485
250,olinda,-8.0089,-34.8553,21.85,88,0,1.03,BR,1719641487
251,rio grande,-32.035,-52.0986,6.64,73,1,7.88,BR,1719641488
252,rikaze,29.25,88.8833,17.09,46,100,1.09,CN,1719641490
253,hasaki,35.7333,140.8333,27.94,86,100,3.05,JP,1719641492
254,sabang,5.8933,95.3214,28.65,77,98,10.49,ID,1719641493
255,tomatlan,19.9333,-105.25,23.06,82,93,0.26,MX,1719641495
256,brookings,44.3114,-96.7984,17.84,91,75,2.06,US,1719641497
257,as saffaniyah,27.9708,48.73,38.52,19,1,5.68,SA,1719641499
258,knyaze-volkonskoye,48.4642,135.4567,21.19,84,94,8.15,RU,1719641500
259,choele choel,-39.2667,-65.6833,3.04,62,0,2.57,AR,1719641502
260,kolda,12.8833,-14.95,24.74,86,77,1.95,SN,1719641504
261,linhares,-19.3911,-40.0722,20.1,97,62,2.58,BR,1719641505
262,kristinestad,62.2743,21.376,17.83,92,100,6.28,FI,1719641507
263,daru,-9.0763,143.2092,26.36,85,99,7.84,PG,1719641509
264,salinopolis,-0.6136,-47.3561,25.07,88,56,2.95,BR,1719641510
265,shingu,33.7333,135.9833,28.84,68,100,3.72,JP,1719641512
266,dingcheng,32.1272,115.0394,28.93,71,99,3.96,CN,1719641514
267,rockingham,42.9668,-71.0995,17.43,77,93,0.45,US,1719641516
268,usoke,-5.1667,32.35,19.63,54,29,4.01,TZ,1719641517
269,fort st. john,56.2499,-120.8529,11.45,90,100,1.73,CA,1719641507
270,urzhar,47.093,81.6294,36.24,19,49,4.15,KZ,1719641522
271,igarka,67.4667,86.5833,13.02,44,89,6.01,RU,1719641524
272,fort mcmurray,56.7268,-111.381,12.73,54,0,3.09,CA,1719641526
273,molde,62.7375,7.1591,13.91,67,75,6.69,NO,1719641527
274,kichmengskiy gorodok,59.9816,45.7854,19.54,41,7,1.85,RU,1719641529
275,nemuro,43.3236,145.575,15.65,95,83,5.69,JP,1719641531
276,lensk,60.7253,114.9278,20.37,84,99,1.81,RU,1719641533
277,andratx,39.5755,2.4202,24.13,88,99,5.19,ES,1719641534
278,maragogi,-9.0122,-35.2225,20.57,90,63,2.2,BR,1719641536
279,niquero,20.0431,-77.5828,26.08,88,100,3.42,CU,1719641538
280,talcahuano,-36.7167,-73.1167,5.82,70,0,6.17,CL,1719641539
281,vershino-darasunskiy,52.35,115.5167,27.42,24,27,4.35,RU,1719641541
282,cockburn town,21.4612,-71.1419,27.39,83,70,7.0,TC,1719641543
283,visconde do rio branco,-21.0103,-42.8406,17.8,72,57,2.05,BR,1719641546
284,arkhangel'sk,64.5401,40.5433,23.06,46,0,5.0,RU,1719641548
285,aswan,24.0934,32.907,36.51,14,73,6.72,EG,1719641549
286,montevideo,-34.8335,-56.1674,5.84,56,40,7.72,UY,1719641551
287,baukau,51.5526,7.2042,18.84,75,55,1.67,DE,1719641553
288,sinan,34.8262,126.1086,24.06,96,100,14.61,KR,1719641555
289,cullman,34.1748,-86.8436,26.19,94,20,3.6,US,1719641556
290,chibougamau,49.9168,-74.3659,14.79,67,100,2.57,CA,1719641558
291,kapa'a,22.0752,-159.319,24.18,79,75,7.2,US,1719641487
292,keminmaa,65.8596,24.8228,20.87,78,31,3.09,FI,1719641561
293,urangan,-25.3,152.9,22.33,77,99,3.58,AU,1719641563
294,flying fish cove,-10.4217,105.6791,27.82,78,20,5.66,CX,1719641567
295,ad douiem,14.0012,32.3116,29.91,51,93,9.93,SD,1719641568
296,palikir - national government center,6.9248,158.1611,28.47,94,100,0.0,FM,1719641570
297,kampene,-3.6,26.6667,23.14,51,71,1.36,CD,1719641572
298,as sulayyil,20.4607,45.5779,36.14,9,100,5.74,SA,1719641573
299,kupang,-10.1667,123.5833,34.32,62,40,7.2,ID,1719641374
300,penzance,50.1186,-5.5371,13.38,77,52,3.97,GB,1719641577
301,holualoa,19.6228,-155.9522,21.42,88,55,1.57,US,1719641578
302,pervomayskoye,43.919,46.7102,26.2,37,7,4.8,RU,1719641580
303,swakopmund,-22.6833,14.5333,13.32,91,0,0.89,NA,1719641582
304,bei'an,24.5399,109.533,30.1,80,100,6.21,CN,1719641583
305,sur,22.5667,59.5289,36.92,36,100,5.96,OM,1719641585
306,prince rupert,54.3161,-130.3201,12.83,94,75,3.6,CA,1719641587
307,baie-comeau,49.2168,-68.1489,11.82,82,75,2.06,CA,1719641588
308,illizi,26.4833,8.4667,30.89,13,0,1.7,DZ,1719641590
309,lazarevskoye,43.9061,39.3331,23.38,55,0,2.5,RU,1719641592
310,remire-montjoly,4.9167,-52.2667,24.02,100,20,0.51,GF,1719641594
311,barra de santo antonio,-9.4047,-35.5072,20.6,85,100,2.36,BR,1719641595
312,taoudenni,22.6783,-3.9836,35.01,10,1,7.82,ML,1719641597
313,prado,-17.3411,-39.2208,21.31,92,22,3.85,BR,1719641599
314,karabash,55.4808,60.2157,7.44,97,100,6.01,RU,1719641600
315,nieuw amsterdam,5.8833,-55.0833,24.8,89,14,3.07,SR,1719641602
316,rahimah,26.7079,50.0619,41.12,33,4,3.95,SA,1719641604
317,dapa,9.7594,126.0531,29.13,70,99,0.88,PH,1719641605
318,santa elena de uairen,4.6167,-61.1333,18.34,96,100,0.95,VE,1719641607
319,neftekamsk,56.092,54.2703,15.71,57,0,8.26,RU,1719641609
320,cabo san lucas,22.8909,-109.9124,29.23,68,20,6.66,MX,1719641358
321,princeville,45.7668,-61.2985,11.29,97,0,1.54,CA,1719641612
322,wafangdian,39.6183,122.0081,26.3,66,88,7.24,CN,1719641614
323,saguenay,48.4168,-71.0657,16.46,75,100,2.57,CA,1719641616
324,dobroslav,46.8194,30.9432,26.1,39,5,4.21,UA,1719641617
325,tofol,5.3248,163.0078,28.23,76,84,3.67,FM,1719641619
326,kulhudhuffushi,6.6221,73.07,28.19,77,36,4.61,MV,1719641621
327,westport,41.1415,-73.3579,18.34,71,20,2.06,US,1719641622
328,cafayate,-26.073,-65.9761,6.48,66,49,1.63,AR,1719641624
329,nuevo casas grandes,30.4167,-107.9167,25.74,52,100,2.76,MX,1719641626
330,broome,42.2506,-75.833,19.26,81,75,4.02,US,1719641627
331,inverloch,-38.6333,145.7167,9.47,86,100,7.42,AU,1719641629
332,new shagunnu,10.3396,4.4688,26.64,80,69,3.77,NG,1719641631
333,ulsteinvik,62.3432,5.8487,12.4,86,100,7.6,NO,1719641632
334,yanta,36.2411,115.6672,31.92,42,76,4.15,CN,1719641634
335,new norfolk,-42.7826,147.0587,11.72,87,85,7.14,AU,1719641636
336,san carlos del zulia,9.0,-71.9135,22.97,96,49,1.55,VE,1719641638
337,bandarbeyla,9.4942,50.8122,30.64,43,88,14.86,SO,1719641639
338,guerrero negro,27.9769,-114.0611,18.77,86,1,4.01,MX,1719641641
339,inyati,-19.6756,28.8469,10.53,69,2,4.01,ZW,1719641643
340,adam,22.3756,57.5233,36.13,32,99,3.45,OM,1719641644
341,mangai,-4.05,19.5333,20.85,37,75,0.5,CD,1719641646
342,kenai,60.5544,-151.2583,13.05,85,0,3.6,US,1719641648
343,hohhot,40.8106,111.6522,28.84,29,32,2.24,CN,1719641649
344,yigo village,13.5361,144.8886,30.62,76,75,5.66,GU,1719641651
345,vernon,50.2581,-119.2691,20.16,67,46,1.54,CA,1719641653
346,zvishavane,-20.3267,30.0665,11.59,75,0,1.26,ZW,1719641654
347,guangyuan,32.442,105.823,32.56,47,98,2.61,CN,1719641656
348,hammerfest,70.6634,23.6821,13.25,82,80,6.17,NO,1719641660
349,saint-philippe,-21.3585,55.7679,23.77,64,50,4.87,RE,1719641663
350,nova vicosa,-17.8919,-39.3719,21.42,92,37,3.05,BR,1719641665
351,harstad,68.799,16.5293,22.36,67,84,4.47,NO,1719641668
352,koundara,12.4833,-13.3,24.75,89,89,2.47,GN,1719641670
353,natal,-5.795,-35.2094,22.36,94,20,2.06,BR,1719641672
354,heroica caborca,30.7167,-112.15,31.12,43,12,8.13,MX,1719641673
355,santiago,-33.4569,-70.6483,10.65,72,20,1.96,CL,1719641631
356,nar'yan-mar,67.6713,53.087,12.21,77,100,7.85,RU,1719641677
357,al ghayzah,16.2079,52.176,31.46,67,100,4.04,YE,1719641678
358,ust-nera,64.5667,143.2,14.16,50,100,2.27,RU,1719641680
359,neosho,36.869,-94.368,28.56,84,94,7.12,US,1719641682
360,antsohihy,-14.8796,47.9875,25.99,41,16,5.26,MG,1719641683
361,tavira,37.1273,-7.6486,18.93,73,80,1.79,PT,1719641685
362,khash,28.2211,61.2158,34.93,15,100,1.09,IR,1719641687
363,shenjiamen,29.9576,122.298,25.68,88,100,10.4,CN,1719641689
364,yalvac,38.2956,31.1778,21.95,52,85,4.57,TR,1719641690
365,murzuq,25.9155,13.9184,30.56,18,0,3.05,LY,1719641692
366,pasni,25.2631,63.471,31.44,66,100,3.57,PK,1719641694
367,nalut,30.3333,10.85,32.44,16,0,4.2,LY,1719641695
368,viet tri,21.3019,105.4308,34.97,61,97,2.69,VN,1719641697
369,mantua,45.1667,10.7833,27.42,85,29,1.34,IT,1719641699
370,saki,8.6667,3.3833,21.9,97,89,2.06,NG,1719641700
371,minas de marcona,-15.2119,-75.1103,12.01,86,65,1.62,PE,1719641702
372,st. john's,47.5649,-52.7093,10.44,98,100,5.66,CA,1719641637
373,takoradi,4.8845,-1.7554,23.88,93,62,2.59,GH,1719641706
374,tindouf,27.6711,-8.1474,20.25,52,0,7.2,DZ,1719641707
375,yreka,41.7354,-122.6345,22.1,35,0,6.69,US,1719641709
376,geraldton,-28.7667,114.6,18.23,68,0,5.14,AU,1719641711
377,narasapur,16.45,81.6667,28.47,81,100,2.48,IN,1719641712
378,bulungu,-4.55,18.6,21.03,34,93,0.71,CD,1719641714
379,sao jose da coroa grande,-8.8978,-35.1478,21.75,86,36,2.57,BR,1719641716
380,kavaratti,10.5669,72.642,27.28,85,100,7.91,IN,1719641717
381,ketchikan,55.3422,-131.6461,13.26,88,100,1.54,US,1719641719
382,acajutla,13.5928,-89.8275,25.94,85,100,2.45,SV,1719641721
383,shindand,33.3029,62.1474,37.27,10,3,3.65,AF,1719641722
384,timmins,48.4669,-81.3331,11.9,100,100,3.6,CA,1719641724
385,la plata,-34.9215,-57.9545,4.37,58,0,6.04,AR,1719641726
386,song cau,13.45,109.2167,30.99,63,77,7.07,VN,1719641728
387,novyy buh,47.6931,32.5216,25.61,45,14,4.45,UA,1719641729
388,ugoofaaru,5.6667,73.0,28.29,75,69,3.8,MV,1719641732
389,stornoway,58.2093,-6.3865,9.98,88,75,7.2,GB,1719641734
390,ushtobe,45.2514,77.9838,32.55,28,100,1.69,KZ,1719641735
391,athni,16.7333,75.0667,28.44,64,97,7.97,IN,1719641737
392,dubbo,-32.25,148.6167,19.07,68,20,3.09,AU,1719641739
393,al qusayr,34.5091,36.5798,29.2,43,0,3.15,SY,1719641740
394,sandnessjoen,66.0217,12.6316,17.29,92,100,4.41,NO,1719641742
395,auki,-8.7676,160.7034,28.11,79,96,2.78,SB,1719641744
396,san bartolome,27.9248,-15.5733,14.26,77,75,6.69,ES,1719641746
397,saint-leu,-21.15,55.2833,23.48,59,10,3.5,RE,1719641747
398,mejit,10.2753,170.8646,27.73,84,100,6.9,MH,1719641749
399,west end,26.6833,-78.9667,26.99,76,84,3.32,BS,1719641751
400,sinabang,2.4803,96.3801,25.83,89,100,2.82,ID,1719641752
401,saham,24.1722,56.8886,38.01,54,100,2.69,OM,1719641754
402,gulf shores,30.246,-87.7008,28.35,93,0,4.12,US,1719641756
403,pitimbu,-7.4706,-34.8086,21.33,86,13,3.85,BR,1719641758
404,tura,25.5198,90.2201,26.61,91,99,2.83,IN,1719641760
405,tual,-5.6667,132.75,26.78,81,71,2.0,ID,1719641762
406,lang suan,9.9456,99.0785,32.2,54,100,0.85,TH,1719641763
407,santander,43.4647,-3.8044,16.92,92,100,3.6,ES,1719641765
408,san luis del palmar,-27.5079,-58.5545,8.87,65,100,3.85,AR,1719641767
409,nova sintra,14.8667,-24.7167,23.49,83,25,4.47,CV,1719641769
410,coquimbo,-29.9533,-71.3436,11.85,100,100,2.06,CL,1719641770
411,shakawe,-18.3667,21.85,12.03,71,24,2.15,BW,1719641772
412,kirakira,-10.4544,161.9205,27.36,81,100,5.48,SB,1719641776
413,saint-francois,46.4154,3.9054,21.49,88,0,2.06,FR,1719641777
414,nizhniy kuranakh,58.8353,125.4869,19.06,36,75,1.49,RU,1719641779
415,ruidoso,33.3317,-105.673,24.04,37,0,1.54,US,1719641507
416,deqen,29.9618,90.7188,18.67,41,86,1.61,CN,1719641782
417,swift current,50.2834,-107.8014,6.45,93,0,1.03,CA,1719641784
418,leava,-14.3,-178.1667,28.08,82,92,4.61,WF,1719641787
419,codajas,-3.8367,-62.0569,22.3,99,29,1.03,BR,1719641789
420,qina,26.1642,32.7267,36.31,15,50,5.29,EG,1719641791
421,kolpashevo,58.3131,82.9089,30.05,40,8,3.9,RU,1719641794
422,chaihe,44.7667,129.7,29.15,54,82,5.03,CN,1719641796
423,lincoln city,44.9582,-124.0179,14.92,87,94,2.57,US,1719641798
424,lionel town,17.8101,-77.2406,27.94,87,100,2.49,JM,1719641800
425,cherepovets,59.1333,37.9,22.9,53,0,2.0,RU,1719641801
426,ambilobe,-13.2,49.05,26.14,41,5,2.39,MG,1719641803
427,cambria,35.5641,-121.0808,16.1,90,44,0.68,US,1719641805
428,tamanrasset,22.785,5.5228,27.95,15,0,4.12,DZ,1719641807
429,argo,37.6333,22.7333,28.21,32,0,9.04,GR,1719641808
430,morada nova,-5.1067,-38.3725,20.99,90,14,1.16,BR,1719641810
431,tukrah,32.5341,20.5791,26.25,72,0,7.28,LY,1719641812
432,roma,43.2128,-75.4557,20.2,59,100,2.57,US,1719641814
433,minab,27.1467,57.0801,36.3,45,100,3.29,IR,1719641815
434,santo antonio do ica,-3.1022,-67.9397,23.59,89,100,1.25,BR,1719641817
435,dadhar,29.4753,67.6514,40.01,37,16,3.14,PK,1719641819
436,choibalsan,48.0667,114.5,16.14,90,98,2.81,MN,1719641821
437,khandyga,62.6667,135.6,18.65,50,92,2.83,RU,1719641822
438,saint croix,17.7397,-64.7388,27.2,81,0,3.09,VI,1719641824
439,lock haven,41.137,-77.4469,23.12,71,100,3.49,US,1719641826
440,medicine hat,50.0501,-110.6683,11.24,87,0,2.06,CA,1719641827
441,lethem,3.3803,-59.7968,23.03,95,100,0.55,GY,1719641829
442,gijang,35.2442,129.2139,22.85,97,100,7.16,KR,1719641831
443,mawu,29.5923,107.3139,25.86,73,88,1.77,CN,1719641833
444,aguas vermelhas,-15.7472,-41.46,14.28,91,0,0.94,BR,1719641835
445,kill devil hills,36.0307,-75.676,24.01,92,0,3.6,US,1719641836
446,kansk,56.2017,95.7175,32.07,37,3,2.23,RU,1719641838
447,angatuba,-23.4897,-48.4128,15.83,66,94,0.89,BR,1719641840
448,meadow lake,34.8014,-106.5436,25.38,36,61,0.4,US,1719641842
449,mega,4.05,38.3,16.16,64,94,7.3,ET,1719641843
450,nyurba,63.2842,118.3319,23.53,34,7,2.51,RU,1719641845
451,yatou,37.15,122.3833,22.18,94,99,4.04,CN,1719641847
452,bodaybo,57.8506,114.1933,25.22,60,70,1.17,RU,1719641849
453,ola,59.5833,151.2833,13.4,71,100,5.67,RU,1719641850
454,usogorsk,63.4106,48.6872,19.44,37,35,2.36,RU,1719641852
455,eraan,9.0629,117.7016,31.15,67,100,2.87,PH,1719641854
456,filingue,14.3521,3.3168,29.52,45,71,2.8,NE,1719641856
457,nuuk,64.1835,-51.7216,2.34,100,100,3.09,GL,1719641857
458,egersund,58.4513,5.9997,13.38,79,57,4.8,NO,1719641859
459,nishinoomote,30.7333,131.0,24.31,100,75,3.6,JP,1719641861
460,alesund,62.4723,6.1549,12.41,80,75,8.75,NO,1719641863
461,pastos bons,-6.6017,-44.0767,20.18,58,42,0.62,BR,1719641864
462,timbuktu,16.7735,-3.0074,32.51,42,53,7.65,ML,1719641866
463,nema,57.5067,50.5011,16.59,51,22,5.63,RU,1719641868
464,belo oriente,-19.22,-42.4836,14.86,70,44,1.24,BR,1719641871
465,port macquarie,-31.4333,152.9167,20.6,73,1,1.34,AU,1719641342
466,alaghsas,17.0187,8.0168,27.94,54,31,2.06,NE,1719641875
467,talwara,31.9486,75.8667,34.83,50,10,2.28,IN,1719641876
468,colachel,8.1667,77.25,32.14,70,74,3.13,IN,1719641878
469,kuraymah,18.55,31.85,36.45,8,85,4.03,SD,1719641880
470,posse,-14.0931,-46.3694,17.98,46,0,1.48,BR,1719641882
471,tshabong,-26.05,22.45,10.69,77,12,5.13,BW,1719641883
472,kailua-kona,19.6406,-155.9956,23.49,91,48,2.53,US,1719641662
473,kurchatov,51.6601,35.6521,23.23,69,0,0.93,RU,1719641887
474,katsuren-haebaru,26.3369,127.8719,32.43,75,75,7.2,JP,1719641889
475,skhira,34.2992,10.07,25.82,70,25,2.59,TN,1719641891
476,watampone,-4.5386,120.3279,27.4,80,93,2.1,ID,1719641892
477,baki,-7.6128,110.7839,32.53,52,50,2.58,ID,1719641894
478,cauquenes,-35.9671,-72.3225,2.65,83,73,1.16,CL,1719641896
479,betio village,1.358,172.9211,30.02,74,100,5.42,KI,1719641897
480,sukuta,13.4103,-16.7082,26.01,89,40,1.54,GM,1719641899
481,yaren,-0.5472,166.916,28.64,73,95,3.93,NR,1719641901
482,xam nua,20.4197,104.0439,30.97,49,100,3.14,LA,1719641903
483,mana,5.6592,-53.7767,25.27,89,29,4.0,GF,1719641904
484,aguachica,8.3084,-73.6166,22.03,95,42,1.63,CO,1719641908
485,pozos de gamboa,22.95,-102.5667,17.27,75,98,5.03,MX,1719641909
486,paradise,36.0972,-115.1467,35.1,14,0,3.6,US,1719641687
487,ixtapa,20.7,-105.2,26.24,80,100,0.87,MX,1719641916
488,pollock pines,38.7613,-120.5866,18.58,47,0,3.05,US,1719641918
489,zuyevka,58.405,51.1335,16.52,48,10,5.76,RU,1719641920
490,thunder bay,48.4001,-89.3168,12.99,100,100,1.54,CA,1719641921
491,vila franca do campo,37.7167,-25.4333,20.23,99,8,1.89,PT,1719641923
492,quelimane,-17.8786,36.8883,20.49,87,16,1.96,MZ,1719641925
493,malvan,16.0667,73.4667,28.74,82,100,7.63,IN,1719641927
494,okha,53.5739,142.9478,9.92,89,100,4.76,RU,1719641928
495,i-n-salah,27.1935,2.4607,34.13,10,0,4.07,DZ,1719641930
496,villa emilio carranza,19.9667,-96.6,26.82,78,100,3.43,MX,1719641932
497,punta del este,-34.9667,-54.95,7.76,68,75,13.86,UY,1719641933
498,usakos,-22.0,15.6,14.64,48,2,4.18,NA,1719641935
499,cascais,38.6979,-9.4215,17.51,96,75,5.81,PT,1719641937
500,antsiranana,-12.2787,49.2917,26.42,44,20,6.17,MG,1719641938
501,abepura,-2.6333,140.5833,30.45,66,20,1.54,ID,1719641940
502,galappo,-4.2667,35.85,16.96,69,40,1.67,TZ,1719641942
503,namibe,-15.1961,12.1522,19.32,72,0,1.97,AO,1719641943
504,ellensburg,46.9965,-120.5479,18.94,62,0,2.57,US,1719641945
505,poyarkovo,49.6,128.6833,23.91,65,100,1.03,RU,1719641947
506,bishkek,42.87,74.59,27.11,26,54,3.33,KG,1719641949
507,dem'yanovo,60.3511,47.0842,19.2,40,9,1.61,RU,1719641950
508,kismayo,-0.3582,42.5454,26.99,69,55,7.91,SO,1719641952
509,hegang,47.4,130.3667,21.16,88,100,1.2,CN,1719641954
510,west bay,19.3667,-81.4167,27.25,92,100,8.01,KY,1719641955
511,richards bay,-28.783,32.0377,16.6,78,0,3.15,ZA,1719641957
512,kingston,17.997,-76.7936,27.53,78,100,0.51,JM,1719641959
513,fort pierce,27.4467,-80.3256,25.59,93,0,1.54,US,1719641960
514,springbok,-29.6643,17.8865,12.57,41,72,2.8,ZA,1719641962
515,saucillo,28.0167,-105.2833,31.75,31,60,1.66,MX,1719641964
516,ratnagiri,16.9833,73.3,29.04,82,96,7.13,IN,1719641966
517,sawa sawa,-4.4717,39.4846,24.82,80,19,5.09,KE,1719641967
518,bubaque,11.2833,-15.8333,26.93,80,69,2.83,GW,1719641969
519,morro do chapeu,-11.55,-41.1561,13.43,100,16,2.3,BR,1719641971
520,bunia,1.5667,30.25,22.64,52,88,1.75,CD,1719641972
521,mar del plata,-38.0023,-57.5575,3.94,94,75,5.14,AR,1719641974
522,patterson,37.4716,-121.1297,25.59,62,0,1.24,US,1719641976
523,manado,1.487,124.8455,26.43,94,40,1.54,ID,1719641978
524,mermoz boabab,14.7065,-17.4758,24.88,88,20,2.06,SN,1719641979
525,ghat,24.9647,10.1728,31.39,14,31,2.4,LY,1719641981
526,kununurra,-15.7667,128.7333,33.99,38,20,2.06,AU,1719641983
527,taquari,-29.7997,-51.8644,9.07,93,83,2.5,BR,1719641984
528,lichtenburg,-26.152,26.1597,8.51,75,26,2.71,ZA,1719641986
529,trinidad,-14.8333,-64.9,25.41,58,96,0.92,BO,1719641988
530,bolivar,37.6145,-93.4105,26.74,79,55,5.94,US,1719641990
531,lydney,51.726,-2.5261,14.28,84,52,0.45,GB,1719641991
532,teruel,40.6667,-0.6667,13.78,73,43,5.81,ES,1719641993
533,boca do acre,-8.7522,-67.3978,24.59,69,46,0.53,BR,1719641995
534,kimbe,-5.5502,150.1429,26.37,88,100,1.98,PG,1719641996
535,tocopilla,-22.092,-70.1979,17.24,61,86,0.98,CL,1719641998
536,tenenkou,14.4572,-4.9169,29.92,51,76,5.53,ML,1719642000
537,arno,60.1167,18.6333,14.88,70,58,8.06,SE,1719642001
538,sarkand,45.41,79.9186,34.79,19,94,6.82,KZ,1719642003
539,tierra nueva,21.6833,-100.5667,18.14,91,88,2.1,MX,1719642006
540,maraba,-5.3686,-49.1178,24.1,94,0,0.0,BR,1719642008
541,sabha,27.0377,14.4283,32.07,19,0,1.32,LY,1719642010
542,sungailiat,-1.85,106.1333,30.81,64,79,5.11,ID,1719642012
